{"type": "FeatureCollection", "features": [{"type": "Feature", "properties": {"id": "0", "address": "1935 Martin Luther King Jr Way, Berkeley, CA 94704", "stopid": "51575", "install_date": "2023-12-17", "removed_date": "2023-12-23", "city": "Berkeley", "lines": ["12", "79"], "ridership": "67", "dirs": ["N", "N"], "bench_length": "6", "adopted": ""}, "geometry": {"type": "Point", "coordinates": [-122.27297132259079, 37.87206290758239]}}, {"type": "Feature", "properties": {"id": "1", "address": "1885 Martin Luther King Jr Way, Berkeley, CA 94709", "stopid": "57457", "install_date": "2023-12-31", "removed_date": "2024-07-09", "city": "Berkeley", "lines": ["12", "79"], "ridership": "5", "dirs": ["N", "N"], "bench_length": "7", "adopted": ""}, "geometry": {"type": "Point", "coordinates": [-122.27316898646622, 37.87362738161569]}}, {"type": "Feature", "properties": {"id": "2", "address": "5055 Telegraph Ave, Oakland, CA 94609", "stopid": "52939", "install_date": "2023-12-31", "removed_date": "", "city": "Oakland", "lines": ["6"], "ridership": "142", "dirs": ["S"], "bench_length": "7", "adopted": ""}, "geometry": {"type": "Point", "coordinates": [-122.2624512323166, 37.83699708032422]}}, {"type": "Feature", "properties": {"id": "3", "address": "1314 Seventh St, Berkeley, CA 94710", "stopid": "50404", "install_date": "2023-12-31", "removed_date": "", "city": "Berkeley", "lines": ["12"], "ridership": "63", "dirs": ["S"], "bench_length": "4", "adopted": ""}, "geometry": {"type": "Point", "coordinates": [-122.30042328051151, 37.87946282413493]}}, {"type": "Feature", "properties": {"id": "4", "address": "4515 Telegraph Ave, Oakland, CA 94609", "stopid": "55989", "install_date": "2024-01-10", "removed_date": "", "city": "Oakland", "lines": ["6"], "ridership": "123", "dirs": ["S"], "bench_length": "7", "adopted": ""}, "geometry": {"type": "Point", "coordinates": [-122.26351452227362, 37.83319532353791]}}, {"type": "Feature", "properties": {"id": "5", "address": "1985 Shattuck Ave., Berkeley, CA 94704", "stopid": "57776", "install_date": "2024-01-11", "removed_date": "", "city": "Berkeley", "lines": ["7", "18", "F", "FS"], "ridership": "309", "dirs": ["N", "N", "N", "N"], "bench_length": "7", "adopted": ""}, "geometry": {"type": "Point", "coordinates": [-122.26832894918624, 37.87251401326473]}}, {"type": "Feature", "properties": {"id": "6", "address": "4514 Telegraph Ave, Oakland, CA 94609", "stopid": "52935", "install_date": "2024-01-14", "removed_date": "", "city": "Oakland", "lines": ["6"], "ridership": "71", "dirs": ["N"], "bench_length": "7", "adopted": ""}, "geometry": {"type": "Point", "coordinates": [-122.26330593871013, 37.83327452309578]}}, {"type": "Feature", "properties": {"id": "7", "address": "4013 Telegraph Ave, Oakland, CA 94609", "stopid": "55575", "install_date": "2024-01-14", "removed_date": "", "city": "Oakland", "lines": ["6"], "ridership": "111", "dirs": ["S"], "bench_length": "7", "adopted": ""}, "geometry": {"type": "Point", "coordinates": [-122.26447543984222, 37.82953977576722]}}, {"type": "Feature", "properties": {"id": "8", "address": "2054 Martin Luther King Jr Way, Berkeley, CA 94704", "stopid": "56434", "install_date": "2024-01-18", "removed_date": "", "city": "Berkeley", "lines": ["12"], "ridership": "70", "dirs": ["S"], "bench_length": "7", "adopted": ""}, "geometry": {"type": "Point", "coordinates": [-122.27309108264598, 37.87120014530652]}}, {"type": "Feature", "properties": {"id": "9", "address": "2483 Hearst Ave, Berkeley, CA 94709", "stopid": "55006", "install_date": "2024-01-18", "removed_date": "", "city": "Berkeley", "lines": ["52", "65"], "ridership": "165", "dirs": ["E", "E"], "bench_length": "7", "adopted": ""}, "geometry": {"type": "Point", "coordinates": [-122.26053559932707, 37.874972424359306]}}, {"type": "Feature", "properties": {"id": "10", "address": "2106 University Ave, Berkeley, CA 94704", "stopid": "57300", "install_date": "2024-02-03", "removed_date": "", "city": "Berkeley", "lines": ["52"], "ridership": "243", "dirs": ["E"], "bench_length": "7", "adopted": ""}, "geometry": {"type": "Point", "coordinates": [-122.267985, 37.872119]}}, {"type": "Feature", "properties": {"id": "11", "address": "2629 Harrison St, Oakland, CA 94612", "stopid": "56781", "install_date": "2024-02-04", "removed_date": "", "city": "Oakland", "lines": ["33"], "ridership": "60", "dirs": ["E"], "bench_length": "7", "adopted": ""}, "geometry": {"type": "Point", "coordinates": [-122.26055965986482, 37.814071066722434]}}, {"type": "Feature", "properties": {"id": "12", "address": "2350 Harrison St, Oakland, CA 94612", "stopid": "58829", "install_date": "2024-02-04", "removed_date": "", "city": "Oakland", "lines": ["33"], "ridership": "24", "dirs": ["W"], "bench_length": "7", "adopted": ""}, "geometry": {"type": "Point", "coordinates": [-122.26152250432467, 37.81249565177232]}}, {"type": "Feature", "properties": {"id": "13", "address": "2965 Broadway, Oakland, CA 94611", "stopid": "51686", "install_date": "2024-02-04", "removed_date": "", "city": "Oakland", "lines": ["51A"], "ridership": "189", "dirs": ["S"], "bench_length": "7", "adopted": ""}, "geometry": {"type": "Point", "coordinates": [-122.26260669968993, 37.81839502283405]}}, {"type": "Feature", "properties": {"id": "14", "address": "2187 Shattuck Ave., Berkeley, CA 94704", "stopid": "51096", "install_date": "2024-02-04", "removed_date": "", "city": "Berkeley", "lines": ["65", "67"], "ridership": "419", "dirs": ["E", "N"], "bench_length": "7", "adopted": ""}, "geometry": {"type": "Point", "coordinates": [-122.26764898008673, 37.86949588432334]}}, {"type": "Feature", "properties": {"id": "15", "address": "Freeborn Hall, Berkeley, CA 94720", "stopid": "52333", "install_date": "2024-02-22", "removed_date": "", "city": "Berkeley", "lines": ["7", "36", "51B", "79"], "ridership": "350", "dirs": ["S", "N", "S", "S"], "bench_length": "7", "adopted": ""}, "geometry": {"type": "Point", "coordinates": [-122.2546273727618, 37.868314630052254]}}, {"type": "Feature", "properties": {"id": "16", "address": "6300 College Ave, Oakland, CA 94618", "stopid": "51506", "install_date": "2024-02-28", "removed_date": "2024-03-05", "city": "Oakland", "lines": ["51B"], "ridership": "300", "dirs": ["N"], "bench_length": "7", "adopted": ""}, "geometry": {"type": "Point", "coordinates": [-122.25227956084731, 37.849902692655284]}}, {"type": "Feature", "properties": {"id": "17", "address": "2445 San Pablo Ave, Berkeley, CA 94702", "stopid": "55880", "install_date": "2024-02-29", "removed_date": "", "city": "Berkeley", "lines": ["72", "72M", "72R"], "ridership": "95", "dirs": ["N", "N", "N"], "bench_length": "7", "adopted": ""}, "geometry": {"type": "Point", "coordinates": [-122.28951578459547, 37.861369294152816]}}, {"type": "Feature", "properties": {"id": "18", "address": "1750 Sacramento St, Berkeley, CA 94702", "stopid": "53126", "install_date": "2024-02-29", "removed_date": "", "city": "Berkeley", "lines": ["52"], "ridership": "39", "dirs": ["E"], "bench_length": "7", "adopted": ""}, "geometry": {"type": "Point", "coordinates": [-122.28260716531591, 37.87455178428145]}}, {"type": "Feature", "properties": {"id": "19", "address": "1216 Broadway, Oakland, CA 94612", "stopid": "53108", "install_date": "2024-03-03", "removed_date": "", "city": "Oakland", "lines": ["6", "18"], "ridership": "?", "dirs": ["N", "N"], "bench_length": "7", "adopted": ""}, "geometry": {"type": "Point", "coordinates": [-122.27178210207174, 37.803212064688346]}}, {"type": "Feature", "properties": {"id": "20", "address": "1450 Broadway, Oakland, CA 94612", "stopid": "52894", "install_date": "2024-03-03", "removed_date": "", "city": "Oakland", "lines": ["6", "12", "18", "33", "51A"], "ridership": "853", "dirs": ["N", "N", "N", "W", "N"], "bench_length": "7", "adopted": ""}, "geometry": {"type": "Point", "coordinates": [-122.27061510469738, 37.80504022266238]}}, {"type": "Feature", "properties": {"id": "21", "address": "3943 Broadway, Oakland, CA 94611", "stopid": "54449", "install_date": "2024-03-03", "removed_date": "", "city": "Oakland", "lines": ["57"], "ridership": "128", "dirs": ["E"], "bench_length": "7", "adopted": ""}, "geometry": {"type": "Point", "coordinates": [-122.25706571495267, 37.8276101913887]}}, {"type": "Feature", "properties": {"id": "22", "address": "1617 Broadway, Oakland, CA 94612", "stopid": "50958", "install_date": "2024-03-03", "removed_date": "", "city": "Oakland", "lines": ["6", "12", "18", "33", "51A", "72", "72M"], "ridership": "168", "dirs": ["S", "S", "S", "E", "S"], "bench_length": "7", "adopted": ""}, "geometry": {"type": "Point", "coordinates": [-122.27008785821344, 37.80632421698583]}}, {"type": "Feature", "properties": {"id": "23", "address": "2510 Le Conte Ave, Berkeley, CA 94709", "stopid": "50966", "install_date": "2024-03-07", "removed_date": "", "city": "Berkeley", "lines": ["65"], "ridership": "18", "dirs": ["N"], "bench_length": "4", "adopted": ""}, "geometry": {"type": "Point", "coordinates": [-122.26044714919456, 37.8768503017968]}}, {"type": "Feature", "properties": {"id": "24", "address": "3022 Foothill Blvd, Oakland, CA 94601", "stopid": "56660", "install_date": "2024-03-17", "removed_date": "", "city": "Oakland", "lines": ["40"], "ridership": "302", "dirs": ["N"], "bench_length": "7", "adopted": ""}, "geometry": {"type": "Point", "coordinates": [-122.22301394308154, 37.78389822228799]}}, {"type": "Feature", "properties": {"id": "25", "address": "103 Glen Ave, Oakland, CA 9411", "stopid": "51315", "install_date": "2024-04-14", "removed_date": "", "city": "Oakland", "lines": ["12"], "ridership": "19", "dirs": ["S"], "bench_length": "4", "adopted": ""}, "geometry": {"type": "Point", "coordinates": [-122.24990531294443, 37.82626076372188]}}, {"type": "Feature", "properties": {"id": "26", "address": "1402 Martin Luther King Jr Way, Berkeley, CA 94709, USA", "stopid": "57587", "install_date": "2024-04-28", "removed_date": "", "city": "Berkeley", "lines": ["12", "79"], "ridership": "53", "dirs": ["S"], "bench_length": "4", "adopted": ""}, "geometry": {"type": "Point", "coordinates": [-122.27416127996725, 37.88125467962226]}}, {"type": "Feature", "properties": {"id": "27", "address": "Linda Ave & Grand Ave, Piedmont, CA 94611", "stopid": "53280", "install_date": "2024-05-09", "removed_date": "", "city": "Piedmont", "lines": ["12"], "ridership": "5", "dirs": ["S"], "bench_length": "4", "adopted": ""}, "geometry": {"type": "Point", "coordinates": [-122.2440629758893, 37.82154670471441]}}, {"type": "Feature", "properties": {"id": "28", "address": "73rd Av & International Blvd", "stopid": "58882", "install_date": "2024-05-12", "removed_date": "", "city": "Oakland", "lines": ["73"], "ridership": "138", "dirs": ["W"], "bench_length": "7", "adopted": ""}, "geometry": {"type": "Point", "coordinates": [-122.18693233909192, 37.7595436193391]}}, {"type": "Feature", "properties": {"id": "29", "address": "3924 Market St, Oakland, CA 94608", "stopid": "53322", "install_date": "2024-06-17", "removed_date": "", "city": "Oakland", "lines": ["57"], "ridership": "61", "dirs": ["E"], "bench_length": "7", "adopted": ""}, "geometry": {"type": "Point", "coordinates": [-122.27366279779314, 37.83048660088601]}}, {"type": "Feature", "properties": {"id": "30", "address": "4006 Martin Luther King Jr Way, Oakland, CA 94609", "stopid": "55977", "install_date": "2024-07-01", "removed_date": "", "city": "Oakland", "lines": ["18"], "ridership": "103", "dirs": ["N"], "bench_length": "7", "adopted": ""}, "geometry": {"type": "Point", "coordinates": [-122.26826771773885, 37.83012114959521]}}, {"type": "Feature", "properties": {"id": "31", "address": "247 E 18th St, Oakland, CA 94606", "stopid": "52288", "install_date": "2024-06-23", "removed_date": "", "city": "Oakland", "lines": ["14", "33"], "ridership": "132", "dirs": ["E", "E"], "bench_length": "7", "adopted": ""}, "geometry": {"type": "Point", "coordinates": [-122.25226654812136, 37.79967989470399]}}]}