{"type": "FeatureCollection", "features": [{"type": "Feature", "properties": {"id": "0", "address": "1935 Martin Luther King Jr Way, Berkeley, CA 94704", "stopid": "51575", "city": "Berkeley", "lines": "12,79", "dirs": "N,N", "length": "6", "service_date": "12/17/2023", "status": "Removed"}, "geometry": {"type": "Point", "coordinates": [-122.27297132259079, 37.87206290758239]}}, {"type": "Feature", "properties": {"id": "1", "address": "1885 Martin Luther King Jr Way, Berkeley, CA 94709", "stopid": "57457", "city": "Berkeley", "lines": "12,79", "dirs": "N,N", "length": "7", "service_date": "12/31/2023", "status": "In Service"}, "geometry": {"type": "Point", "coordinates": [-122.27316898646622, 37.87362738161569]}}, {"type": "Feature", "properties": {"id": "2", "address": "5055 Telegraph Ave, Oakland, CA 94609", "stopid": "52939", "city": "Oakland", "lines": "6", "dirs": "S", "length": "7", "service_date": "12/31/2023", "status": "In Service"}, "geometry": {"type": "Point", "coordinates": [-122.2624512323166, 37.83699708032422]}}, {"type": "Feature", "properties": {"id": "3", "address": "1314 Seventh St, Berkeley, CA 94710", "stopid": "50404", "city": "Berkeley", "lines": "12", "dirs": "S", "length": "4", "service_date": "12/31/2023", "status": "In Service"}, "geometry": {"type": "Point", "coordinates": [-122.30042328051151, 37.87946282413493]}}, {"type": "Feature", "properties": {"id": "4", "address": "4515 Telegraph Ave, Oakland, CA 94609", "stopid": "55989", "city": "Oakland", "lines": "6", "dirs": "S", "length": "7", "service_date": "1/10/2024", "status": "In Service"}, "geometry": {"type": "Point", "coordinates": [-122.26351452227362, 37.83319532353791]}}, {"type": "Feature", "properties": {"id": "5", "address": "1985 Shattuck Ave., Berkeley, CA 94704", "stopid": "57776", "city": "Berkeley", "lines": "7,18,F,FS", "dirs": "N,N,N,N", "length": "7", "service_date": "1/11/2024", "status": "In Service"}, "geometry": {"type": "Point", "coordinates": [-122.26832894918624, 37.87251401326473]}}, {"type": "Feature", "properties": {"id": "6", "address": "4514 Telegraph Ave, Oakland, CA 94609", "stopid": "52935", "city": "Oakland", "lines": "6", "dirs": "N", "length": "7", "service_date": "1/14/24", "status": "In Service"}, "geometry": {"type": "Point", "coordinates": [-122.26330593871013, 37.83327452309578]}}, {"type": "Feature", "properties": {"id": "7", "address": "4013 Telegraph Ave, Oakland, CA 94609", "stopid": "55575", "city": "Oakland", "lines": "6", "dirs": "S", "length": "7", "service_date": "1/14/24", "status": "In Service"}, "geometry": {"type": "Point", "coordinates": [-122.26447543984222, 37.82953977576722]}}, {"type": "Feature", "properties": {"id": "8", "address": "2054 Martin Luther King Jr Way, Berkeley, CA 94704", "stopid": "56434", "city": "Berkeley", "lines": "12", "dirs": "S", "length": "7", "service_date": "1/18/2024", "status": "In Service"}, "geometry": {"type": "Point", "coordinates": [-122.27309108264598, 37.87120014530652]}}, {"type": "Feature", "properties": {"id": "9", "address": "2483 Hearst Ave, Berkeley, CA 94709", "stopid": "55006", "city": "Berkeley", "lines": "52,65", "dirs": "E,E", "length": "7", "service_date": "1/18/2024", "status": "In Service"}, "geometry": {"type": "Point", "coordinates": [-122.26053559932707, 37.874972424359306]}}, {"type": "Feature", "properties": {"id": "10", "address": "2106 University Ave, Berkeley, CA 94704", "stopid": "57300", "city": "Berkeley", "lines": "52", "dirs": "E", "length": "7", "service_date": "2/3/2024", "status": "In Service"}, "geometry": {"type": "Point", "coordinates": [-122.267985, 37.872119]}}, {"type": "Feature", "properties": {"id": "11", "address": "2629 Harrison St, Oakland, CA 94612", "stopid": "56781", "city": "Oakland", "lines": "33", "dirs": "E", "length": "7", "service_date": "2/4/2024", "status": "In Service"}, "geometry": {"type": "Point", "coordinates": [-122.26055965986482, 37.814071066722434]}}, {"type": "Feature", "properties": {"id": "12", "address": "2350 Harrison St, Oakland, CA 94612", "stopid": "58829", "city": "Oakland", "lines": "33", "dirs": "W", "length": "7", "service_date": "2/4/2024", "status": "In Service"}, "geometry": {"type": "Point", "coordinates": [-122.26152250432467, 37.81249565177232]}}, {"type": "Feature", "properties": {"id": "13", "address": "2965 Broadway, Oakland, CA 94611", "stopid": "51686", "city": "Oakland", "lines": "51A", "dirs": "S", "length": "7", "service_date": "2/4/2024", "status": "In Service"}, "geometry": {"type": "Point", "coordinates": [-122.26260669968993, 37.81839502283405]}}, {"type": "Feature", "properties": {"id": "14", "address": "2187 Shattuck Ave., Berkeley, CA 94704", "stopid": "51096", "city": "Berkeley", "lines": "65,67", "dirs": "E,N", "length": "7", "service_date": "2/4/2024", "status": "In Service"}, "geometry": {"type": "Point", "coordinates": [-122.26764898008673, 37.86949588432334]}}, {"type": "Feature", "properties": {"id": "10", "address": "2106 University Ave, Berkeley, CA 94704", "stopid": "57300", "city": "Berkeley", "lines": "52", "dirs": "E", "length": "7", "service_date": "2/3/2024", "status": "In Service"}, "geometry": {"type": "Point", "coordinates": [-122.267985, 37.872119]}}, {"type": "Feature", "properties": {"id": "15", "address": "Freeborn Hall, Berkeley, CA 94720", "stopid": "52333", "city": "Berkeley", "lines": "7,36,51B,79", "dirs": "S,N,S,S", "length": "7", "service_date": "2/22/2024", "status": "In Service"}, "geometry": {"type": "Point", "coordinates": [-122.2546273727618, 37.868314630052254]}}, {"type": "Feature", "properties": {"id": "10", "address": "2106 University Ave, Berkeley, CA 94704", "stopid": "57300", "city": "Berkeley", "lines": "52", "dirs": "E", "length": "7", "service_date": "2/3/2024", "status": "In Service"}, "geometry": {"type": "Point", "coordinates": [-122.267985, 37.872119]}}, {"type": "Feature", "properties": {"id": "16", "address": "6300 College Ave, Oakland, CA 94618", "stopid": "51506", "city": "Oakland", "lines": "51B", "dirs": "N", "length": "7", "service_date": "2/28/2024", "status": "In Service"}, "geometry": {"type": "Point", "coordinates": [-122.25227956084731, 37.849902692655284]}}, {"type": "Feature", "properties": {"id": "17", "address": "2445 San Pablo Ave, Berkeley, CA 94702", "stopid": "55880", "city": "Berkeley", "lines": "72,72M,72R", "dirs": "N,N,N", "length": "7", "service_date": "2/29/2024", "status": "In Service"}, "geometry": {"type": "Point", "coordinates": [-122.28951578459547, 37.861369294152816]}}, {"type": "Feature", "properties": {"id": "10", "address": "2106 University Ave, Berkeley, CA 94704", "stopid": "57300", "city": "Berkeley", "lines": "52", "dirs": "E", "length": "7", "service_date": "2/3/2024", "status": "In Service"}, "geometry": {"type": "Point", "coordinates": [-122.267985, 37.872119]}}, {"type": "Feature", "properties": {"id": "18", "address": "1750 Sacramento St, Berkeley, CA 94702", "stopid": "53126", "city": "Berkeley", "lines": "52", "dirs": "E", "length": "7", "service_date": "2/29/2024", "status": "In Service"}, "geometry": {"type": "Point", "coordinates": [-122.28260716531591, 37.87455178428145]}}, {"type": "Feature", "properties": {"id": "10", "address": "2106 University Ave, Berkeley, CA 94704", "stopid": "57300", "city": "Berkeley", "lines": "52", "dirs": "E", "length": "7", "service_date": "2/3/2024", "status": "In Service"}, "geometry": {"type": "Point", "coordinates": [-122.267985, 37.872119]}}, {"type": "Feature", "properties": {"id": "19", "address": "1216 Broadway, Oakland, CA 94612", "stopid": "53108", "city": "Oakland", "lines": "6,18", "dirs": "N,N", "length": "7", "service_date": "3/3/2024", "status": "In Service"}, "geometry": {"type": "Point", "coordinates": [-122.27178210207174, 37.803212064688346]}}, {"type": "Feature", "properties": {"id": "20", "address": "1450 Broadway, Oakland, CA 94612", "stopid": "52894", "city": "Oakland", "lines": "6,12,18,33,51A", "dirs": "N,N,N,W,N", "length": "7", "service_date": "3/3/2024", "status": "In Service"}, "geometry": {"type": "Point", "coordinates": [-122.27061510469738, 37.80504022266238]}}, {"type": "Feature", "properties": {"id": "21", "address": "3943 Broadway, Oakland, CA 94611", "stopid": "54449", "city": "Oakland", "lines": "57", "dirs": "E", "length": "7", "service_date": "3/3/2024", "status": "In Service"}, "geometry": {"type": "Point", "coordinates": [-122.25706571495267, 37.8276101913887]}}, {"type": "Feature", "properties": {"id": "22", "address": "1617 Broadway, Oakland, CA 94612", "stopid": "50958", "city": "Oakland", "lines": "6,12,18,33,51A,72,72M", "dirs": "S,S,S,E,S", "length": "7", "service_date": "3/3/2024", "status": "In Service"}, "geometry": {"type": "Point", "coordinates": [-122.27008785821344, 37.80632421698583]}}, {"type": "Feature", "properties": {"id": "23", "address": "2510 Le Conte Ave, Berkeley, CA 94709", "stopid": "50966", "city": "Berkeley", "lines": "65", "dirs": "N", "length": "4", "service_date": "3/7/2024", "status": "In Service"}, "geometry": {"type": "Point", "coordinates": [-122.26044714919456, 37.8768503017968]}}, {"type": "Feature", "properties": {"id": "24", "address": "3022 Foothill Blvd, Oakland, CA 94601", "stopid": "56660", "city": "Oakland", "lines": "40", "dirs": "N", "length": "7", "service_date": "3/17/2024", "status": "In Service"}, "geometry": {"type": "Point", "coordinates": [-122.22301394308154, 37.78389822228799]}}, {"type": "Feature", "properties": {"id": "14", "address": "2187 Shattuck Ave., Berkeley, CA 94704", "stopid": "51096", "city": "Berkeley", "lines": "65,67", "dirs": "E,N", "length": "7", "service_date": "2/4/2024", "status": "Temporarily OOS"}, "geometry": {"type": "Point", "coordinates": [-122.26764898008673, 37.86949588432334]}}, {"type": "Feature", "properties": {"id": "16", "address": "6300 College Ave, Oakland, CA 94618", "stopid": "51506", "city": "Oakland", "lines": "51B", "dirs": "N", "length": "7", "service_date": "2/28/2024", "status": "Removed"}, "geometry": {"type": "Point", "coordinates": [-122.25227956084731, 37.849902692655284]}}]}